Time, Altitude - m, Altitude - ft, SpeedofSound - ft/sec, AirDensity - slug/ft3,TransVel - ft/sec,Mach, AoA - rad, AoA - deg, AoS - rad, AoS - deg, u_NED, v_NED, w_NED, u_NED - ft/sec, v_NED - ft/sec, w_NED - ft/sec, phi_rad, theta_rad, psi_rad, phi_deg, theta_deg, psi_deg, roll_rate - rad/s, pitch_rate - rad/s, yaw_rate - rad/s, roll_rate - deg/s, pitch_rate - deg/s, yaw_rate - deg/s 
0.0000000000,3048.0000000000,9997.4400000000,-6277438562204192487878988888393020692503707483087375482269988814848.0000000000,-6277438562204192487878988888393020692503707483087375482269988814848.0000000000,-6277438562204192487878988888393020692503707483087375482269988814848.0000000000,-6277438562204192487878988888393020692503707483087375482269988814848.0000000000,0.0149554786,0.8573204321,-6277438562204192487878988888393020692503707483087375482269988814848.0000000000,-6277438562204192487878988888393020692503707483087375482269988814848.0000000000,85.0088065429,0.0000000000,-0.0037847070,278.8288854609,0.0000000000,-0.0124138390,0.0000000000,0.0150000000,0.0000000000,0.0000000000,0.8598726115,0.0000000000,0.0000000000,0.0000000000,0.0000000000,0.0000000000,0.0000000000,0.0000000000
0.7500000000,3048.0032902018,9997.4507918620,-6277438562204192487878988888393020692503707483087375482269988814848.0000000000,-6277438562204192487878988888393020692503707483087375482269988814848.0000000000,-6277438562204192487878988888393020692503707483087375482269988814848.0000000000,-6277438562204192487878988888393020692503707483087375482269988814848.0000000000,0.0149420809,0.8565524102,-6277438562204192487878988888393020692503707483087375482269988814848.0000000000,-6277438562204192487878988888393020692503707483087375482269988814848.0000000000,85.0084622352,0.0000000000,-0.0049167714,278.8277561313,0.0000000000,-0.0161270103,0.0000000000,0.0149999195,0.0000000000,0.0000000000,0.8598679994,0.0000000000,0.0000000000,0.0000027294,0.0000000000,0.0000000000,0.0001564621,0.0000000000
1.5000000000,3048.0072622580,9997.4638202062,-6277438562204192487878988888393020692503707483087375482269988814848.0000000000,-6277438562204192487878988888393020692503707483087375482269988814848.0000000000,-6277438562204192487878988888393020692503707483087375482269988814848.0000000000,-6277438562204192487878988888393020692503707483087375482269988814848.0000000000,0.0149401581,0.8564421861,-6277438562204192487878988888393020692503707483087375482269988814848.0000000000,-6277438562204192487878988888393020692503707483087375482269988814848.0000000000,85.0080812615,0.0000000000,-0.0056577558,278.8265065378,0.0000000000,-0.0185574391,0.0000000000,0.0150067136,0.0000000000,0.0000000000,0.8602574698,0.0000000000,0.0000000000,0.0000148638,0.0000000000,0.0000000000,0.0008520678,0.0000000000
2.2500000000,3048.0117848248,9997.4786542252,-6277438562204192487878988888393020692503707483087375482269988814848.0000000000,-6277438562204192487878988888393020692503707483087375482269988814848.0000000000,-6277438562204192487878988888393020692503707483087375482269988814848.0000000000,-6277438562204192487878988888393020692503707483087375482269988814848.0000000000,0.0149439839,0.8566614947,-6277438562204192487878988888393020692503707483087375482269988814848.0000000000,-6277438562204192487878988888393020692503707483087375482269988814848.0000000000,85.0076424104,0.0000000000,-0.0064097303,278.8250671063,0.0000000000,-0.0210239155,0.0000000000,0.0150193857,0.0000000000,0.0000000000,0.8609838916,0.0000000000,0.0000000000,0.0000178354,0.0000000000,0.0000000000,0.0010224106,0.0000000000
3.0000000000,3048.0169007409,9997.4954344303,-6277438562204192487878988888393020692503707483087375482269988814848.0000000000,-6277438562204192487878988888393020692503707483087375482269988814848.0000000000,-6277438562204192487878988888393020692503707483087375482269988814848.0000000000,-6277438562204192487878988888393020692503707483087375482269988814848.0000000000,0.0149465500,0.8568085996,-6277438562204192487878988888393020692503707483087375482269988814848.0000000000,-6277438562204192487878988888393020692503707483087375482269988814848.0000000000,85.0071345804,0.0000000000,-0.0072315588,278.8234014237,0.0000000000,-0.0237195127,0.0000000000,0.0150316200,0.0000000000,0.0000000000,0.8616852251,0.0000000000,0.0000000000,0.0000145281,0.0000000000,0.0000000000,0.0008328215,0.0000000000
3.7500000000,3048.0226240130,9997.5142067625,-6277438562204192487878988888393020692503707483087375482269988814848.0000000000,-6277438562204192487878988888393020692503707483087375482269988814848.0000000000,-6277438562204192487878988888393020692503707483087375482269988814848.0000000000,-6277438562204192487878988888393020692503707483087375482269988814848.0000000000,0.0149470031,0.8568345739,-6277438562204192487878988888393020692503707483087375482269988814848.0000000000,-6277438562204192487878988888393020692503707483087375482269988814848.0000000000,85.0065660871,0.0000000000,-0.0080177369,278.8215367657,0.0000000000,-0.0262981771,0.0000000000,0.0150413222,0.0000000000,0.0000000000,0.8622413973,0.0000000000,0.0000000000,0.0000115580,0.0000000000,0.0000000000,0.0006625608,0.0000000000
4.5000000000,3048.0289012426,9997.5347960758,-6277438562204192487878988888393020692503707483087375482269988814848.0000000000,-6277438562204192487878988888393020692503707483087375482269988814848.0000000000,-6277438562204192487878988888393020692503707483087375482269988814848.0000000000,-6277438562204192487878988888393020692503707483087375482269988814848.0000000000,0.0149471191,0.8568412244,-6277438562204192487878988888393020692503707483087375482269988814848.0000000000,-6277438562204192487878988888393020692503707483087375482269988814848.0000000000,85.0059497185,0.0000000000,-0.0087061346,278.8195150767,0.0000000000,-0.0285561215,0.0000000000,0.0150495371,0.0000000000,0.0000000000,0.8627123167,0.0000000000,0.0000000000,0.0000104892,0.0000000000,0.0000000000,0.0006012889,0.0000000000
5.2500000000,3048.0356588303,9997.5569609634,-6277438562204192487878988888393020692503707483087375482269988814848.0000000000,-6277438562204192487878988888393020692503707483087375482269988814848.0000000000,-6277438562204192487878988888393020692503707483087375482269988814848.0000000000,-6277438562204192487878988888393020692503707483087375482269988814848.0000000000,0.0149477930,0.8568798546,-6277438562204192487878988888393020692503707483087375482269988814848.0000000000,-6277438562204192487878988888393020692503707483087375482269988814848.0000000000,85.0052944208,0.0000000000,-0.0093003952,278.8173657001,0.0000000000,-0.0305052963,0.0000000000,0.0150572026,0.0000000000,0.0000000000,0.8631517424,0.0000000000,0.0000000000,0.0000099262,0.0000000000,0.0000000000,0.0005690179,0.0000000000
6.0000000000,3048.0428323460,9997.5804900949,-6277438562204192487878988888393020692503707483087375482269988814848.0000000000,-6277438562204192487878988888393020692503707483087375482269988814848.0000000000,-6277438562204192487878988888393020692503707483087375482269988814848.0000000000,-6277438562204192487878988888393020692503707483087375482269988814848.0000000000,0.0149488114,0.8569382360,-6277438562204192487878988888393020692503707483087375482269988814848.0000000000,-6277438562204192487878988888393020692503707483087375482269988814848.0000000000,85.0046066572,0.0000000000,-0.0098160256,278.8151098358,0.0000000000,-0.0321965640,0.0000000000,0.0150642878,0.0000000000,0.0000000000,0.8635579019,0.0000000000,0.0000000000,0.0000089048,0.0000000000,0.0000000000,0.0005104676,0.0000000000
6.7500000000,3048.0503637636,9997.6051931445,-6277438562204192487878988888393020692503707483087375482269988814848.0000000000,-6277438562204192487878988888393020692503707483087375482269988814848.0000000000,-6277438562204192487878988888393020692503707483087375482269988814848.0000000000,-6277438562204192487878988888393020692503707483087375482269988814848.0000000000,0.0149498198,0.8569960378,-6277438562204192487878988888393020692503707483087375482269988814848.0000000000,-6277438562204192487878988888393020692503707483087375482269988814848.0000000000,85.0038933133,0.0000000000,-0.0102540445,278.8127700677,0.0000000000,-0.0336332660,0.0000000000,0.0150704501,0.0000000000,0.0000000000,0.8639111501,0.0000000000,0.0000000000,0.0000075035,0.0000000000,0.0000000000,0.0004301373,0.0000000000
7.5000000000,3048.0581923126,9997.6308707852,-6277438562204192487878988888393020692503707483087375482269988814848.0000000000,-6277438562204192487878988888393020692503707483087375482269988814848.0000000000,-6277438562204192487878988888393020692503707483087375482269988814848.0000000000,-6277438562204192487878988888393020692503707483087375482269988814848.0000000000,0.0149507430,0.8570489637,-6277438562204192487878988888393020692503707483087375482269988814848.0000000000,-6277438562204192487878988888393020692503707483087375482269988814848.0000000000,85.0031622725,0.0000000000,-0.0106075015,278.8103722538,0.0000000000,-0.0347926050,0.0000000000,0.0150755325,0.0000000000,0.0000000000,0.8642025015,0.0000000000,0.0000000000,0.0000060529,0.0000000000,0.0000000000,0.0003469810,0.0000000000
8.2500000000,3048.0662526201,9997.6573085938,-6277438562204192487878988888393020692503707483087375482269988814848.0000000000,-6277438562204192487878988888393020692503707483087375482269988814848.0000000000,-6277438562204192487878988888393020692503707483087375482269988814848.0000000000,-6277438562204192487878988888393020692503707483087375482269988814848.0000000000,0.0149516506,0.8571009926,-6277438562204192487878988888393020692503707483087375482269988814848.0000000000,-6277438562204192487878988888393020692503707483087375482269988814848.0000000000,85.0024216808,0.0000000000,-0.0108717457,278.8079431130,0.0000000000,-0.0356593258,0.0000000000,0.0150795499,0.0000000000,0.0000000000,0.8644327965,0.0000000000,0.0000000000,0.0000046640,0.0000000000,0.0000000000,0.0002673638,0.0000000000
9.0000000000,3048.0744774256,9997.6842859560,-6277438562204192487878988888393020692503707483087375482269988814848.0000000000,-6277438562204192487878988888393020692503707483087375482269988814848.0000000000,-6277438562204192487878988888393020692503707483087375482269988814848.0000000000,-6277438562204192487878988888393020692503707483087375482269988814848.0000000000,0.0149525812,0.8571543348,-6277438562204192487878988888393020692503707483087375482269988814848.0000000000,-6277438562204192487878988888393020692503707483087375482269988814848.0000000000,85.0016794304,0.0000000000,-0.0110462239,278.8055085318,0.0000000000,-0.0362316144,0.0000000000,0.0150825342,0.0000000000,0.0000000000,0.8646038702,0.0000000000,0.0000000000,0.0000032924,0.0000000000,0.0000000000,0.0001887348,0.0000000000
9.7500000000,3048.0827997812,9997.7115832824,-6277438562204192487878988888393020692503707483087375482269988814848.0000000000,-6277438562204192487878988888393020692503707483087375482269988814848.0000000000,-6277438562204192487878988888393020692503707483087375482269988814848.0000000000,-6277438562204192487878988888393020692503707483087375482269988814848.0000000000,0.0149535189,0.8572080890,-6277438562204192487878988888393020692503707483087375482269988814848.0000000000,-6277438562204192487878988888393020692503707483087375482269988814848.0000000000,85.0009431178,0.0000000000,-0.0111320573,278.8030934265,0.0000000000,-0.0365131480,0.0000000000,0.0150844828,0.0000000000,0.0000000000,0.8647155752,0.0000000000,0.0000000000,0.0000019023,0.0000000000,0.0000000000,0.0001090470,0.0000000000
10.5000000000,3048.0911536858,9997.7389840893,-6277438562204192487878988888393020692503707483087375482269988814848.0000000000,-6277438562204192487878988888393020692503707483087375482269988814848.0000000000,-6277438562204192487878988888393020692503707483087375482269988814848.0000000000,-6277438562204192487878988888393020692503707483087375482269988814848.0000000000,0.0149544377,0.8572607621,-6277438562204192487878988888393020692503707483087375482269988814848.0000000000,-6277438562204192487878988888393020692503707483087375482269988814848.0000000000,85.0002201121,0.0000000000,-0.0111306001,278.8007219678,0.0000000000,-0.0365083685,0.0000000000,0.0150853856,0.0000000000,0.0000000000,0.8647673294,0.0000000000,0.0000000000,0.0000005075,0.0000000000,0.0000000000,0.0000290896,0.0000000000
11.2500000000,3048.0994742847,9997.7662756539,-6277438562204192487878988888393020692503707483087375482269988814848.0000000000,-6277438562204192487878988888393020692503707483087375482269988814848.0000000000,-6277438562204192487878988888393020692503707483087375482269988814848.0000000000,-6277438562204192487878988888393020692503707483087375482269988814848.0000000000,0.0149553245,0.8573115946,-6277438562204192487878988888393020692503707483087375482269988814848.0000000000,-6277438562204192487878988888393020692503707483087375482269988814848.0000000000,84.9995175259,0.0000000000,-0.0110436116,278.7984174849,0.0000000000,-0.0362230460,0.0000000000,0.0150852501,0.0000000000,0.0000000000,0.8647595577,0.0000000000,0.0000000000,-0.0000008632,0.0000000000,0.0000000000,-0.0000494837,0.0000000000
12.0000000000,3048.1076983561,9997.7932506080,-6277438562204192487878988888393020692503707483087375482269988814848.0000000000,-6277438562204192487878988888393020692503707483087375482269988814848.0000000000,-6277438562204192487878988888393020692503707483087375482269988814848.0000000000,-6277438562204192487878988888393020692503707483087375482269988814848.0000000000,0.0149561741,0.8573602965,-6277438562204192487878988888393020692503707483087375482269988814848.0000000000,-6277438562204192487878988888393020692503707483087375482269988814848.0000000000,84.9988421210,0.0000000000,-0.0108737151,278.7962021569,0.0000000000,-0.0356657856,0.0000000000,0.0150841019,0.0000000000,0.0000000000,0.8646937374,0.0000000000,0.0000000000,-0.0000021907,0.0000000000,0.0000000000,-0.0001255810,0.0000000000
12.7500000000,3048.1157650028,9997.8197092093,-6277438562204192487878988888393020692503707483087375482269988814848.0000000000,-6277438562204192487878988888393020692503707483087375482269988814848.0000000000,-6277438562204192487878988888393020692503707483087375482269988814848.0000000000,-6277438562204192487878988888393020692503707483087375482269988814848.0000000000,0.0149569811,0.8574065576,-6277438562204192487878988888393020692503707483087375482269988814848.0000000000,-6277438562204192487878988888393020692503707483087375482269988814848.0000000000,84.9982002250,0.0000000000,-0.0106244732,278.7940967382,0.0000000000,-0.0348482720,0.0000000000,0.0150819775,0.0000000000,0.0000000000,0.8645719590,0.0000000000,0.0000000000,-0.0000034646,0.0000000000,0.0000000000,-0.0001986088,0.0000000000
13.5000000000,3048.1236163006,9997.8454614659,-6277438562204192487878988888393020692503707483087375482269988814848.0000000000,-6277438562204192487878988888393020692503707483087375482269988814848.0000000000,-6277438562204192487878988888393020692503707483087375482269988814848.0000000000,-6277438562204192487878988888393020692503707483087375482269988814848.0000000000,0.0149577381,0.8574499524,-6277438562204192487878988888393020692503707483087375482269988814848.0000000000,-6277438562204192487878988888393020692503707483087375482269988814848.0000000000,84.9975976760,0.0000000000,-0.0103002283,278.7921203772,0.0000000000,-0.0337847489,0.0000000000,0.0150789206,0.0000000000,0.0000000000,0.8643967246,0.0000000000,0.0000000000,-0.0000046756,0.0000000000,0.0000000000,-0.0002680292,0.0000000000
14.2500000000,3048.1311978290,9997.8703288792,-6277438562204192487878988888393020692503707483087375482269988814848.0000000000,-6277438562204192487878988888393020692503707483087375482269988814848.0000000000,-6277438562204192487878988888393020692503707483087375482269988814848.0000000000,-6277438562204192487878988888393020692503707483087375482269988814848.0000000000,0.0149584376,0.8574900548,-6277438562204192487878988888393020692503707483087375482269988814848.0000000000,-6277438562204192487878988888393020692503707483087375482269988814848.0000000000,84.9970397797,0.0000000000,-0.0099059687,278.7902904776,0.0000000000,-0.0324915773,0.0000000000,0.0150749825,0.0000000000,0.0000000000,0.8641709707,0.0000000000,0.0000000000,-0.0000058129,0.0000000000,0.0000000000,-0.0003332230,0.0000000000
15.0000000000,3048.1384591312,9997.8941459503,-6277438562204192487878988888393020692503707483087375482269988814848.0000000000,-6277438562204192487878988888393020692503707483087375482269988814848.0000000000,-6277438562204192487878988888393020692503707483087375482269988814848.0000000000,-6277438562204192487878988888393020692503707483087375482269988814848.0000000000,0.0149590736,0.8575265114,-6277438562204192487878988888393020692503707483087375482269988814848.0000000000,-6277438562204192487878988888393020692503707483087375482269988814848.0000000000,84.9965312700,0.0000000000,-0.0094472662,278.7886225655,0.0000000000,-0.0309870333,0.0000000000,0.0150702224,0.0000000000,0.0000000000,0.8638981012,0.0000000000,0.0000000000,-0.0000068657,0.0000000000,0.0000000000,-0.0003935769,0.0000000000
15.7500000000,3048.1453541344,9997.9167615608,-6277438562204192487878988888393020692503707483087375482269988814848.0000000000,-6277438562204192487878988888393020692503707483087375482269988814848.0000000000,-6277438562204192487878988888393020692503707483087375482269988814848.0000000000,-6277438562204192487878988888393020692503707483087375482269988814848.0000000000,0.0149596410,0.8575590363,-6277438562204192487878988888393020692503707483087375482269988814848.0000000000,-6277438562204192487878988888393020692503707483087375482269988814848.0000000000,84.9960762711,0.0000000000,-0.0089302301,278.7871301691,0.0000000000,-0.0292911549,0.0000000000,0.0150647073,0.0000000000,0.0000000000,0.8635819498,0.0000000000,0.0000000000,-0.0000078249,0.0000000000,0.0000000000,-0.0004485609,0.0000000000
16.5000000000,3048.1518415288,9997.9380402146,-6277438562204192487878988888393020692503707483087375482269988814848.0000000000,-6277438562204192487878988888393020692503707483087375482269988814848.0000000000,-6277438562204192487878988888393020692503707483087375482269988814848.0000000000,-6277438562204192487878988888393020692503707483087375482269988814848.0000000000,0.0149601356,0.8575873898,-6277438562204192487878988888393020692503707483087375482269988814848.0000000000,-6277438562204192487878988888393020692503707483087375482269988814848.0000000000,84.9956782683,0.0000000000,-0.0083614396,278.7858247199,0.0000000000,-0.0274255219,0.0000000000,0.0150585105,0.0000000000,0.0000000000,0.8632267141,0.0000000000,0.0000000000,-0.0000086827,0.0000000000,0.0000000000,-0.0004977344,0.0000000000
17.2500000000,3048.1578850898,9997.9578630947,-6277438562204192487878988888393020692503707483087375482269988814848.0000000000,-6277438562204192487878988888393020692503707483087375482269988814848.0000000000,-6277438562204192487878988888393020692503707483087375482269988814848.0000000000,-6277438562204192487878988888393020692503707483087375482269988814848.0000000000,0.0149605540,0.8576113732,-6277438562204192487878988888393020692503707483087375482269988814848.0000000000,-6277438562204192487878988888393020692503707483087375482269988814848.0000000000,84.9953400858,0.0000000000,-0.0077478620,278.7847154814,0.0000000000,-0.0254129875,0.0000000000,0.0150517103,0.0000000000,0.0000000000,0.8628368945,0.0000000000,0.0000000000,-0.0000094327,0.0000000000,0.0000000000,-0.0005407283,0.0000000000
18.0000000000,3048.1634539376,9997.9761289153,-6277438562204192487878988888393020692503707483087375482269988814848.0000000000,-6277438562204192487878988888393020692503707483087375482269988814848.0000000000,-6277438562204192487878988888393020692503707483087375482269988814848.0000000000,-6277438562204192487878988888393020692503707483087375482269988814848.0000000000,0.0149608934,0.8576308346,-6277438562204192487878988888393020692503707483087375482269988814848.0000000000,-6277438562204192487878988888393020692503707483087375482269988814848.0000000000,84.9950638729,0.0000000000,-0.0070967693,278.7838095033,0.0000000000,-0.0232774033,0.0000000000,0.0150443897,0.0000000000,0.0000000000,0.8624172439,0.0000000000,0.0000000000,-0.0000100696,0.0000000000,0.0000000000,-0.0005772387,0.0000000000
18.7500000000,3048.1685227349,9997.9927545706,-6277438562204192487878988888393020692503707483087375482269988814848.0000000000,-6277438562204192487878988888393020692503707483087375482269988814848.0000000000,-6277438562204192487878988888393020692503707483087375482269988814848.0000000000,-6277438562204192487878988888393020692503707483087375482269988814848.0000000000,0.0149611523,0.8576456728,-6277438562204192487878988888393020692503707483087375482269988814848.0000000000,-6277438562204192487878988888393020692503707483087375482269988814848.0000000000,84.9948510970,0.0000000000,-0.0064156565,278.7831115981,0.0000000000,-0.0210433532,0.0000000000,0.0150366352,0.0000000000,0.0000000000,0.8619727171,0.0000000000,0.0000000000,-0.0000105893,0.0000000000,0.0000000000,-0.0006070323,0.0000000000
19.5000000000,3048.1730718246,9998.0076755846,-6277438562204192487878988888393020692503707483087375482269988814848.0000000000,-6277438562204192487878988888393020692503707483087375482269988814848.0000000000,-6277438562204192487878988888393020692503707483087375482269988814848.0000000000,-6277438562204192487878988888393020692503707483087375482269988814848.0000000000,0.0149613296,0.8576558378,-6277438562204192487878988888393020692503707483087375482269988814848.0000000000,-6277438562204192487878988888393020692503707483087375482269988814848.0000000000,84.9947025430,0.0000000000,-0.0057121613,278.7826243412,0.0000000000,-0.0187358891,0.0000000000,0.0150285357,0.0000000000,0.0000000000,0.8615084160,0.0000000000,0.0000000000,-0.0000109891,0.0000000000,0.0000000000,-0.0006299502,0.0000000000
20.2500000000,3048.1770873057,9998.0208463627,-6277438562204192487878988888393020692503707483087375482269988814848.0000000000,-6277438562204192487878988888393020692503707483087375482269988814848.0000000000,-6277438562204192487878988888393020692503707483087375482269988814848.0000000000,-6277438562204192487878988888393020692503707483087375482269988814848.0000000000,0.0149614254,0.8576613283,-6277438562204192487878988888393020692503707483087375482269988814848.0000000000,-6277438562204192487878988888393020692503707483087375482269988814848.0000000000,84.9946183211,0.0000000000,-0.0049939832,278.7823480932,0.0000000000,-0.0163802649,0.0000000000,0.0150201819,0.0000000000,0.0000000000,0.8610295332,0.0000000000,0.0000000000,-0.0000112675,0.0000000000,0.0000000000,-0.0006459088,0.0000000000
21.0000000000,3048.1805610500,9998.0322402441,-6277438562204192487878988888393020692503707483087375482269988814848.0000000000,-6277438562204192487878988888393020692503707483087375482269988814848.0000000000,-6277438562204192487878988888393020692503707483087375482269988814848.0000000000,-6277438562204192487878988888393020692503707483087375482269988814848.0000000000,0.0149614404,0.8576621908,-6277438562204192487878988888393020692503707483087375482269988814848.0000000000,-6277438562204192487878988888393020692503707483087375482269988814848.0000000000,84.9945978796,0.0000000000,-0.0042688028,278.7822810451,0.0000000000,-0.0140016733,0.0000000000,0.0150116648,0.0000000000,0.0000000000,0.8605412966,0.0000000000,0.0000000000,-0.0000114243,0.0000000000,0.0000000000,-0.0006548979,0.0000000000
21.7500000000,3048.1834906581,9998.0418493586,-6277438562204192487878988888393020692503707483087375482269988814848.0000000000,-6277438562204192487878988888393020692503707483087375482269988814848.0000000000,-6277438562204192487878988888393020692503707483087375482269988814848.0000000000,-6277438562204192487878988888393020692503707483087375482269988814848.0000000000,0.0149613764,0.8576585181,-6277438562204192487878988888393020692503707483087375482269988814848.0000000000,-6277438562204192487878988888393020692503707483087375482269988814848.0000000000,84.9946400258,0.0000000000,-0.0035442038,278.7824192846,0.0000000000,-0.0116249886,0.0000000000,0.0150030755,0.0000000000,0.0000000000,0.8600489150,0.0000000000,0.0000000000,-0.0000114606,0.0000000000,0.0000000000,-0.0006569784,0.0000000000
22.5000000000,3048.1858793582,9998.0496842948,-6277438562204192487878988888393020692503707483087375482269988814848.0000000000,-6277438562204192487878988888393020692503707483087375482269988814848.0000000000,-6277438562204192487878988888393020692503707483087375482269988814848.0000000000,-6277438562204192487878988888393020692503707483087375482269988814848.0000000000,0.0149612356,0.8576504476,-6277438562204192487878988888393020692503707483087375482269988814848.0000000000,-6277438562204192487878988888393020692503707483087375482269988814848.0000000000,84.9947429519,0.0000000000,-0.0028275971,278.7827568824,0.0000000000,-0.0092745184,0.0000000000,0.0149945035,0.0000000000,0.0000000000,0.8595575250,0.0000000000,0.0000000000,-0.0000113787,0.0000000000,0.0000000000,-0.0006522809,0.0000000000
23.2500000000,3048.1877358491,9998.0557735852,-6277438562204192487878988888393020692503707483087375482269988814848.0000000000,-6277438562204192487878988888393020692503707483087375482269988814848.0000000000,-6277438562204192487878988888393020692503707483087375482269988814848.0000000000,-6277438562204192487878988888393020692503707483087375482269988814848.0000000000,0.0149610212,0.8576381586,-6277438562204192487878988888393020692503707483087375482269988814848.0000000000,-6277438562204192487878988888393020692503707483087375482269988814848.0000000000,84.9949042674,0.0000000000,-0.0021261487,278.7832859970,0.0000000000,-0.0069737677,0.0000000000,0.0149860362,0.0000000000,0.0000000000,0.8590721403,0.0000000000,0.0000000000,-0.0000111819,0.0000000000,0.0000000000,-0.0006410024,0.0000000000
24.0000000000,3048.1890740913,9998.0601630196,-6277438562204192487878988888393020692503707483087375482269988814848.0000000000,-6277438562204192487878988888393020692503707483087375482269988814848.0000000000,-6277438562204192487878988888393020692503707483087375482269988814848.0000000000,-6277438562204192487878988888393020692503707483087375482269988814848.0000000000,0.0149607371,0.8576218700,-6277438562204192487878988888393020692503707483087375482269988814848.0000000000,-6277438562204192487878988888393020692503707483087375482269988814848.0000000000,84.9951210359,0.0000000000,-0.0014467121,278.7839969976,0.0000000000,-0.0047452155,0.0000000000,0.0149777582,0.0000000000,0.0000000000,0.8585976029,0.0000000000,0.0000000000,-0.0000108749,0.0000000000,0.0000000000,-0.0006234032,0.0000000000
24.7500000000,3048.1899130479,9998.0629147972,-6277438562204192487878988888393020692503707483087375482269988814848.0000000000,-6277438562204192487878988888393020692503707483087375482269988814848.0000000000,-6277438562204192487878988888393020692503707483087375482269988814848.0000000000,-6277438562204192487878988888393020692503707483087375482269988814848.0000000000,0.0149603876,0.8576018366,-6277438562204192487878988888393020692503707483087375482269988814848.0000000000,-6277438562204192487878988888393020692503707483087375482269988814848.0000000000,84.9953898175,0.0000000000,-0.0007957645,278.7848786015,0.0000000000,-0.0026101075,0.0000000000,0.0149697500,0.0000000000,0.0000000000,0.8581385371,0.0000000000,0.0000000000,-0.0000104632,0.0000000000,0.0000000000,-0.0005998026,0.0000000000
25.5000000000,3048.1902763807,9998.0641065286,-6277438562204192487878988888393020692503707483087375482269988814848.0000000000,-6277438562204192487878988888393020692503707483087375482269988814848.0000000000,-6277438562204192487878988888393020692503707483087375482269988814848.0000000000,-6277438562204192487878988888393020692503707483087375482269988814848.0000000000,0.0149599778,0.8575783462,-6277438562204192487878988888393020692503707483087375482269988814848.0000000000,-6277438562204192487878988888393020692503707483087375482269988814848.0000000000,84.9957067153,0.0000000000,-0.0001793491,278.7859180263,0.0000000000,-0.0005882649,0.0000000000,0.0149620879,0.0000000000,0.0000000000,0.8576993070,0.0000000000,0.0000000000,-0.0000099534,0.0000000000,0.0000000000,-0.0005705744,0.0000000000
26.2500000000,3048.1901921043,9998.0638301021,-6277438562204192487878988888393020692503707483087375482269988814848.0000000000,-6277438562204192487878988888393020692503707483087375482269988814848.0000000000,-6277438562204192487878988888393020692503707483087375482269988814848.0000000000,-6277438562204192487878988888393020692503707483087375482269988814848.0000000000,0.0149595133,0.8575517156,-6277438562204192487878988888393020692503707483087375482269988814848.0000000000,-6277438562204192487878988888393020692503707483087375482269988814848.0000000000,84.9960674249,0.0000000000,0.0003969777,278.7871011536,0.0000000000,0.0013020867,0.0000000000,0.0149548427,0.0000000000,0.0000000000,0.8572839775,0.0000000000,0.0000000000,-0.0000093527,0.0000000000,0.0000000000,-0.0005361420,0.0000000000
27.0000000000,3048.1896922038,9998.0621904286,-6277438562204192487878988888393020692503707483087375482269988814848.0000000000,-6277438562204192487878988888393020692503707483087375482269988814848.0000000000,-6277438562204192487878988888393020692503707483087375482269988814848.0000000000,-6277438562204192487878988888393020692503707483087375482269988814848.0000000000,0.0149589999,0.8575222869,-6277438562204192487878988888393020692503707483087375482269988814848.0000000000,-6277438562204192487878988888393020692503707483087375482269988814848.0000000000,84.9964672876,0.0000000000,0.0009281919,278.7884127032,0.0000000000,0.0030444695,0.0000000000,0.0149480795,0.0000000000,0.0000000000,0.8568962791,0.0000000000,0.0000000000,-0.0000086694,0.0000000000,0.0000000000,-0.0004969727,0.0000000000
27.7500000000,3048.1888122196,9998.0593040804,-6277438562204192487878988888393020692503707483087375482269988814848.0000000000,-6277438562204192487878988888393020692503707483087375482269988814848.0000000000,-6277438562204192487878988888393020692503707483087375482269988814848.0000000000,-6277438562204192487878988888393020692503707483087375482269988814848.0000000000,0.0149584441,0.8574904234,-6277438562204192487878988888393020692503707483087375482269988814848.0000000000,-6277438562204192487878988888393020692503707483087375482269988814848.0000000000,84.9969013460,0.0000000000,0.0014098425,278.7898364149,0.0000000000,0.0046242834,0.0000000000,0.0149418571,0.0000000000,0.0000000000,0.8565395770,0.0000000000,0.0000000000,-0.0000079123,0.0000000000,0.0000000000,-0.0004535722,0.0000000000
28.5000000000,3048.1875908053,9998.0552978414,-6277438562204192487878988888393020692503707483087375482269988814848.0000000000,-6277438562204192487878988888393020692503707483087375482269988814848.0000000000,-6277438562204192487878988888393020692503707483087375482269988814848.0000000000,-6277438562204192487878988888393020692503707483087375482269988814848.0000000000,0.0149578524,0.8574565051,-6277438562204192487878988888393020692503707483087375482269988814848.0000000000,-6277438562204192487878988888393020692503707483087375482269988814848.0000000000,84.9973644014,0.0000000000,0.0018380838,278.7913552366,0.0000000000,0.0060289148,0.0000000000,0.0149362272,0.0000000000,0.0000000000,0.8562168448,0.0000000000,0.0000000000,-0.0000070908,0.0000000000,0.0000000000,-0.0004064782,0.0000000000
29.2500000000,3048.1860692631,9998.0503071831,-6277438562204192487878988888393020692503707483087375482269988814848.0000000000,-6277438562204192487878988888393020692503707483087375482269988814848.0000000000,-6277438562204192487878988888393020692503707483087375482269988814848.0000000000,-6277438562204192487878988888393020692503707483087375482269988814848.0000000000,0.0149572317,0.8574209250,-6277438562204192487878988888393020692503707483087375482269988814848.0000000000,-6277438562204192487878988888393020692503707483087375482269988814848.0000000000,84.9978510722,0.0000000000,0.0022097018,278.7929515167,0.0000000000,0.0072478220,0.0000000000,0.0149312345,0.0000000000,0.0000000000,0.8559306425,0.0000000000,0.0000000000,-0.0000062147,0.0000000000,0.0000000000,-0.0003562547,0.0000000000
30.0000000000,3048.1842910628,9998.0444746861,-6277438562204192487878988888393020692503707483087375482269988814848.0000000000,-6277438562204192487878988888393020692503707483087375482269988814848.0000000000,-6277438562204192487878988888393020692503707483087375482269988814848.0000000000,-6277438562204192487878988888393020692503707483087375482269988814848.0000000000,0.0149565890,0.8573840842,-6277438562204192487878988888393020692503707483087375482269988814848.0000000000,-6277438562204192487878988888393020692503707483087375482269988814848.0000000000,84.9983558529,0.0000000000,0.0025221335,278.7946071975,0.0000000000,0.0082725979,0.0000000000,0.0149269163,0.0000000000,0.0000000000,0.8556830995,0.0000000000,0.0000000000,-0.0000052941,0.0000000000,0.0000000000,-0.0003034852,0.0000000000
30.7500000000,3048.1823013485,9998.0379484230,-6277438562204192487878988888393020692503707483087375482269988814848.0000000000,-6277438562204192487878988888393020692503707483087375482269988814848.0000000000,-6277438562204192487878988888393020692503707483087375482269988814848.0000000000,-6277438562204192487878988888393020692503707483087375482269988814848.0000000000,0.0149559314,0.8573463882,-6277438562204192487878988888393020692503707483087375482269988814848.0000000000,-6277438562204192487878988888393020692503707483087375482269988814848.0000000000,84.9988731737,0.0000000000,0.0027734783,278.7963040099,0.0000000000,0.0090970088,0.0000000000,0.0149233018,0.0000000000,0.0000000000,0.8554759022,0.0000000000,0.0000000000,-0.0000043396,0.0000000000,0.0000000000,-0.0002487666,0.0000000000
31.5000000000,3048.1801464392,9998.0308803207,-6277438562204192487878988888393020692503707483087375482269988814848.0000000000,-6277438562204192487878988888393020692503707483087375482269988814848.0000000000,-6277438562204192487878988888393020692503707483087375482269988814848.0000000000,-6277438562204192487878988888393020692503707483087375482269988814848.0000000000,0.0149552660,0.8573082419,-6277438562204192487878988888393020692503707483087375482269988814848.0000000000,-6277438562204192487878988888393020692503707483087375482269988814848.0000000000,84.9993974586,0.0000000000,0.0029625034,278.7980236643,0.0000000000,0.0097170112,0.0000000000,0.0149204128,0.0000000000,0.0000000000,0.8553102861,0.0000000000,0.0000000000,-0.0000033616,0.0000000000,0.0000000000,-0.0001927024,0.0000000000
32.2500000000,3048.1778733289,9998.0234245187,-6277438562204192487878988888393020692503707483087375482269988814848.0000000000,-6277438562204192487878988888393020692503707483087375482269988814848.0000000000,-6277438562204192487878988888393020692503707483087375482269988814848.0000000000,-6277438562204192487878988888393020692503707483087375482269988814848.0000000000,0.0149545997,0.8572700462,-6277438562204192487878988888393020692503707483087375482269988814848.0000000000,-6277438562204192487878988888393020692503707483087375482269988814848.0000000000,84.9999231827,0.0000000000,0.0030886417,278.7997480393,0.0000000000,0.0101307447,0.0000000000,0.0149182627,0.0000000000,0.0000000000,0.8551870339,0.0000000000,0.0000000000,-0.0000023706,0.0000000000,0.0000000000,-0.0001358968,0.0000000000
33.0000000000,3048.1755291896,9998.0157357417,-6277438562204192487878988888393020692503707483087375482269988814848.0000000000,-6277438562204192487878988888393020692503707483087375482269988814848.0000000000,-6277438562204192487878988888393020692503707483087375482269988814848.0000000000,-6277438562204192487878988888393020692503707483087375482269988814848.0000000000,0.0149539394,0.8572321937,-6277438562204192487878988888393020692503707483087375482269988814848.0000000000,-6277438562204192487878988888393020692503707483087375482269988814848.0000000000,85.0004449278,0.0000000000,0.0031519827,278.8014593631,0.0000000000,0.0103385034,0.0000000000,0.0149168574,0.0000000000,0.0000000000,0.8551064765,0.0000000000,0.0000000000,-0.0000013772,0.0000000000,0.0000000000,-0.0000789482,0.0000000000
33.7500000000,3048.1731608844,9998.0079677009,-6277438562204192487878988888393020692503707483087375482269988814848.0000000000,-6277438562204192487878988888393020692503707483087375482269988814848.0000000000,-6277438562204192487878988888393020692503707483087375482269988814848.0000000000,-6277438562204192487878988888393020692503707483087375482269988814848.0000000000,0.0149532917,0.8571950645,-6277438562204192487878988888393020692503707483087375482269988814848.0000000000,-6277438562204192487878988888393020692503707483087375482269988814848.0000000000,85.0009574354,0.0000000000,0.0031532577,278.8031403881,0.0000000000,0.0103426854,0.0000000000,0.0149161949,0.0000000000,0.0000000000,0.8550685003,0.0000000000,0.0000000000,-0.0000003915,0.0000000000,0.0000000000,-0.0000224434,0.0000000000
34.5000000000,3048.1708144944,9998.0002715415,-6277438562204192487878988888393020692503707483087375482269988814848.0000000000,-6277438562204192487878988888393020692503707483087375482269988814848.0000000000,-6277438562204192487878988888393020692503707483087375482269988814848.0000000000,-6277438562204192487878988888393020692503707483087375482269988814848.0000000000,0.0149526630,0.8571590232,-6277438562204192487878988888393020692503707483087375482269988814848.0000000000,-6277438562204192487878988888393020692503707483087375482269988814848.0000000000,85.0014556574,0.0000000000,0.0030938177,278.8047745562,0.0000000000,0.0101477220,0.0000000000,0.0149162657,0.0000000000,0.0000000000,0.8550725577,0.0000000000,0.0000000000,0.0000005765,0.0000000000,0.0000000000,0.0000330485,0.0000000000
35.2500000000,3048.1685348628,9997.9927943500,-6277438562204192487878988888393020692503707483087375482269988814848.0000000000,-6277438562204192487878988888393020692503707483087375482269988814848.0000000000,-6277438562204192487878988888393020692503707483087375482269988814848.0000000000,-6277438562204192487878988888393020692503707483087375482269988814848.0000000000,0.0149520592,0.8571244152,-6277438562204192487878988888393020692503707483087375482269988814848.0000000000,-6277438562204192487878988888393020692503707483087375482269988814848.0000000000,85.0019348027,0.0000000000,0.0029756061,278.8063461530,0.0000000000,0.0097599880,0.0000000000,0.0149170529,0.0000000000,0.0000000000,0.8551176827,0.0000000000,0.0000000000,0.0000015173,0.0000000000,0.0000000000,0.0000869811,0.0000000000
36.0000000000,3048.1663651636,9997.9856777367,-6277438562204192487878988888393020692503707483087375482269988814848.0000000000,-6277438562204192487878988888393020692503707483087375482269988814848.0000000000,-6277438562204192487878988888393020692503707483087375482269988814848.0000000000,-6277438562204192487878988888393020692503707483087375482269988814848.0000000000,0.0149514862,0.8570915633,-6277438562204192487878988888393020692503707483087375482269988814848.0000000000,-6277438562204192487878988888393020692503707483087375482269988814848.0000000000,85.0023903813,0.0000000000,0.0028011260,278.8078404507,0.0000000000,0.0091876932,0.0000000000,0.0149185327,0.0000000000,0.0000000000,0.8552025094,0.0000000000,0.0000000000,0.0000024219,0.0000000000,0.0000000000,0.0001388362,0.0000000000
36.7500000000,3048.1643464953,9997.9790565045,-6277438562204192487878988888393020692503707483087375482269988814848.0000000000,-6277438562204192487878988888393020692503707483087375482269988814848.0000000000,-6277438562204192487878988888393020692503707483087375482269988814848.0000000000,-6277438562204192487878988888393020692503707483087375482269988814848.0000000000,0.0149509489,0.8570607656,-6277438562204192487878988888393020692503707483087375482269988814848.0000000000,-6277438562204192487878988888393020692503707483087375482269988814848.0000000000,85.0028182431,0.0000000000,0.0025734020,278.8092438372,0.0000000000,0.0084407584,0.0000000000,0.0149206746,0.0000000000,0.0000000000,0.8553252954,0.0000000000,0.0000000000,0.0000032818,0.0000000000,0.0000000000,0.0001881280,0.0000000000
37.5000000000,3048.1625175052,9997.9730574172,-6277438562204192487878988888393020692503707483087375482269988814848.0000000000,-6277438562204192487878988888393020692503707483087375482269988814848.0000000000,-6277438562204192487878988888393020692503707483087375482269988814848.0000000000,-6277438562204192487878988888393020692503707483087375482269988814848.0000000000,0.0149504522,0.8570322923,-6277438562204192487878988888393020692503707483087375482269988814848.0000000000,-6277438562204192487878988888393020692503707483087375482269988814848.0000000000,85.0032146131,0.0000000000,0.0022959378,278.8105439311,0.0000000000,0.0075306760,0.0000000000,0.0149234422,0.0000000000,0.0000000000,0.8554839477,0.0000000000,0.0000000000,0.0000040891,0.0000000000,0.0000000000,0.0002344081,0.0000000000
38.2500000000,3048.1609140480,9997.9677980774,-6277438562204192487878988888393020692503707483087375482269988814848.0000000000,-6277438562204192487878988888393020692503707483087375482269988814848.0000000000,-6277438562204192487878988888393020692503707483087375482269988814848.0000000000,-6277438562204192487878988888393020692503707483087375482269988814848.0000000000,0.0149500003,0.8570063839,-6277438562204192487878988888393020692503707483087375482269988814848.0000000000,-6277438562204192487878988888393020692503707483087375482269988814848.0000000000,85.0035761223,0.0000000000,0.0019726699,278.8117296812,0.0000000000,0.0064703574,0.0000000000,0.0149267933,0.0000000000,0.0000000000,0.8556760518,0.0000000000,0.0000000000,0.0000048368,0.0000000000,0.0000000000,0.0002772685,0.0000000000
39.0000000000,3048.1595688789,9997.9633859227,-6277438562204192487878988888393020692503707483087375482269988814848.0000000000,-6277438562204192487878988888393020692503707483087375482269988814848.0000000000,-6277438562204192487878988888393020692503707483087375482269988814848.0000000000,-6277438562204192487878988888393020692503707483087375482269988814848.0000000000,0.0149495967,0.8569832494,-6277438562204192487878988888393020692503707483087375482269988814848.0000000000,-6277438562204192487878988888393020692503707483087375482269988814848.0000000000,85.0038998327,0.0000000000,0.0016079177,278.8127914512,0.0000000000,0.0052739700,0.0000000000,0.0149306809,0.0000000000,0.0000000000,0.8558989036,0.0000000000,0.0000000000,0.0000055185,0.0000000000,0.0000000000,0.0003163452,0.0000000000
39.7500000000,3048.1585113865,9997.9599173477,-6277438562204192487878988888393020692503707483087375482269988814848.0000000000,-6277438562204192487878988888393020692503707483087375482269988814848.0000000000,-6277438562204192487878988888393020692503707483087375482269988814848.0000000000,-6277438562204192487878988888393020692503707483087375482269988814848.0000000000,0.0149492446,0.8569630647,-6277438562204192487878988888393020692503707483087375482269988814848.0000000000,-6277438562204192487878988888393020692503707483087375482269988814848.0000000000,85.0041832582,0.0000000000,0.0012063306,278.8137210868,0.0000000000,0.0039567643,0.0000000000,0.0149350531,0.0000000000,0.0000000000,0.8561495435,0.0000000000,0.0000000000,0.0000061286,0.0000000000,0.0000000000,0.0003513214,0.0000000000
40.5000000000,3048.1577673657,9997.9574769595,-6277438562204192487878988888393020692503707483087375482269988814848.0000000000,-6277438562204192487878988888393020692503707483087375482269988814848.0000000000,-6277438562204192487878988888393020692503707483087375482269988814848.0000000000,-6277438562204192487878988888393020692503707483087375482269988814848.0000000000,0.0149489464,0.8569459716,-6277438562204192487878988888393020692503707483087375482269988814848.0000000000,-6277438562204192487878988888393020692503707483087375482269988814848.0000000000,85.0044243802,0.0000000000,0.0007728333,278.8145119670,0.0000000000,0.0025348933,0.0000000000,0.0149398547,0.0000000000,0.0000000000,0.8564247923,0.0000000000,0.0000000000,0.0000066625,0.0000000000,0.0000000000,0.0003819287,0.0000000000
41.2500000000,3048.1573588321,9997.9561369694,-6277438562204192487878988888393020692503707483087375482269988814848.0000000000,-6277438562204192487878988888393020692503707483087375482269988814848.0000000000,-6277438562204192487878988888393020692503707483087375482269988814848.0000000000,-6277438562204192487878988888393020692503707483087375482269988814848.0000000000,0.0149487040,0.8569320773,-6277438562204192487878988888393020692503707483087375482269988814848.0000000000,-6277438562204192487878988888393020692503707483087375482269988814848.0000000000,85.0046216580,0.0000000000,0.0003125694,278.8151590382,0.0000000000,0.0010252277,0.0000000000,0.0149450269,0.0000000000,0.0000000000,0.8567212888,0.0000000000,0.0000000000,0.0000071165,0.0000000000,0.0000000000,0.0004079498,0.0000000000
42.0000000000,3048.1573038798,9997.9559567257,-6277438562204192487878988888393020692503707483087375482269988814848.0000000000,-6277438562204192487878988888393020692503707483087375482269988814848.0000000000,-6277438562204192487878988888393020692503707483087375482269988814848.0000000000,-6277438562204192487878988888393020692503707483087375482269988814848.0000000000,0.0149485187,0.8569214536,-6277438562204192487878988888393020692503707483087375482269988814848.0000000000,-6277438562204192487878988888393020692503707483087375482269988814848.0000000000,85.0047740340,0.0000000000,-0.0001691564,278.8156588315,0.0000000000,-0.0005548329,0.0000000000,0.0149505087,0.0000000000,0.0000000000,0.8570355279,0.0000000000,0.0000000000,0.0000074875,0.0000000000,0.0000000000,0.0004292190,0.0000000000
42.7500000000,3048.1576165817,9997.9569823879,-6277438562204192487878988888393020692503707483087375482269988814848.0000000000,-6277438562204192487878988888393020692503707483087375482269988814848.0000000000,-6277438562204192487878988888393020692503707483087375482269988814848.0000000000,-6277438562204192487878988888393020692503707483087375482269988814848.0000000000,0.0149483911,0.8569141375,-6277438562204192487878988888393020692503707483087375482269988814848.0000000000,-6277438562204192487878988888393020692503707483087375482269988814848.0000000000,85.0048809340,0.0000000000,-0.0006669360,278.8160094634,0.0000000000,-0.0021875501,0.0000000000,0.0149562369,0.0000000000,0.0000000000,0.8573638999,0.0000000000,0.0000000000,0.0000077736,0.0000000000,0.0000000000,0.0004456229,0.0000000000
43.5000000000,3048.1583069342,9997.9592467442,-6277438562204192487878988888393020692503707483087375482269988814848.0000000000,-6277438562204192487878988888393020692503707483087375482269988814848.0000000000,-6277438562204192487878988888393020692503707483087375482269988814848.0000000000,-6277438562204192487878988888393020692503707483087375482269988814848.0000000000,0.0149483212,0.8569101310,-6277438562204192487878988888393020692503707483087375482269988814848.0000000000,-6277438562204192487878988888393020692503707483087375482269988814848.0000000000,85.0049422623,0.0000000000,-0.0011753159,278.8162106204,0.0000000000,-0.0038550361,0.0000000000,0.0149621476,0.0000000000,0.0000000000,0.8577027296,0.0000000000,0.0000000000,0.0000079739,0.0000000000,0.0000000000,0.0004571005,0.0000000000
44.2500000000,3048.1593808441,9997.9627691688,-6277438562204192487878988888393020692503707483087375482269988814848.0000000000,-6277438562204192487878988888393020692503707483087375482269988814848.0000000000,-6277438562204192487878988888393020692503707483087375482269988814848.0000000000,-6277438562204192487878988888393020692503707483087375482269988814848.0000000000,0.0149483085,0.8569094025,-6277438562204192487878988888393020692503707483087375482269988814848.0000000000,-6277438562204192487878988888393020692503707483087375482269988814848.0000000000,85.0049583926,0.0000000000,-0.0016888536,278.8162635276,0.0000000000,-0.0055394398,0.0000000000,0.0149681762,0.0000000000,0.0000000000,0.8580483157,0.0000000000,0.0000000000,0.0000080880,0.0000000000,0.0000000000,0.0004636426,0.0000000000
45.0000000000,3048.1608401582,9997.9675557190,-6277438562204192487878988888393020692503707483087375482269988814848.0000000000,-6277438562204192487878988888393020692503707483087375482269988814848.0000000000,-6277438562204192487878988888393020692503707483087375482269988814848.0000000000,-6277438562204192487878988888393020692503707483087375482269988814848.0000000000,0.0149483518,0.8569118874,-6277438562204192487878988888393020692503707483087375482269988814848.0000000000,-6277438562204192487878988888393020692503707483087375482269988814848.0000000000,85.0049301532,0.0000000000,-0.0022021737,278.8161709024,0.0000000000,-0.0072231296,0.0000000000,0.0149742582,0.0000000000,0.0000000000,0.8583969690,0.0000000000,0.0000000000,0.0000081167,0.0000000000,0.0000000000,0.0004652907,0.0000000000
45.7500000000,3048.1626827334,9997.9735993655,-6277438562204192487878988888393020692503707483087375482269988814848.0000000000,-6277438562204192487878988888393020692503707483087375482269988814848.0000000000,-6277438562204192487878988888393020692503707483087375482269988814848.0000000000,-6277438562204192487878988888393020692503707483087375482269988814848.0000000000,0.0149484495,0.8569174895,-6277438562204192487878988888393020692503707483087375482269988814848.0000000000,-6277438562204192487878988888393020692503707483087375482269988814848.0000000000,85.0048588090,0.0000000000,-0.0027100209,278.8159368936,0.0000000000,-0.0088888687,0.0000000000,0.0149803303,0.0000000000,0.0000000000,0.8587450499,0.0000000000,0.0000000000,0.0000080617,0.0000000000,0.0000000000,0.0004621356,0.0000000000
46.5000000000,3048.1649025465,9997.9808803526,-6277438562204192487878988888393020692503707483087375482269988814848.0000000000,-6277438562204192487878988888393020692503707483087375482269988814848.0000000000,-6277438562204192487878988888393020692503707483087375482269988814848.0000000000,-6277438562204192487878988888393020692503707483087375482269988814848.0000000000,0.0149485994,0.8569260829,-6277438562204192487878988888393020692503707483087375482269988814848.0000000000,-6277438562204192487878988888393020692503707483087375482269988814848.0000000000,85.0047460389,0.0000000000,-0.0032073120,278.8155670077,0.0000000000,-0.0105199834,0.0000000000,0.0149863304,0.0000000000,0.0000000000,0.8590890051,0.0000000000,0.0000000000,0.0000079253,0.0000000000,0.0000000000,0.0004543152,0.0000000000
47.2500000000,3048.1674898414,9997.9893666799,-6277438562204192487878988888393020692503707483087375482269988814848.0000000000,-6277438562204192487878988888393020692503707483087375482269988814848.0000000000,-6277438562204192487878988888393020692503707483087375482269988814848.0000000000,-6277438562204192487878988888393020692503707483087375482269988814848.0000000000,0.0149487989,0.8569375139,-6277438562204192487878988888393020692503707483087375482269988814848.0000000000,-6277438562204192487878988888393020692503707483087375482269988814848.0000000000,85.0045939093,0.0000000000,-0.0036891834,278.8150680226,0.0000000000,-0.0121005215,0.0000000000,0.0149921987,0.0000000000,0.0000000000,0.8594254012,0.0000000000,0.0000000000,0.0000077107,0.0000000000,0.0000000000,0.0004420122,0.0000000000
48.0000000000,3048.1704313111,9997.9990147004,-6277438562204192487878988888393020692503707483087375482269988814848.0000000000,-6277438562204192487878988888393020692503707483087375482269988814848.0000000000,-6277438562204192487878988888393020692503707483087375482269988814848.0000000000,-6277438562204192487878988888393020692503707483087375482269988814848.0000000000,0.0149490446,0.8569516029,-6277438562204192487878988888393020692503707483087375482269988814848.0000000000,-6277438562204192487878988888393020692503707483087375482269988814848.0000000000,85.0044048445,0.0000000000,-0.0041510366,278.8144478898,0.0000000000,-0.0136154000,0.0000000000,0.0149978778,0.0000000000,0.0000000000,0.8597509580,0.0000000000,0.0000000000,0.0000074218,0.0000000000,0.0000000000,0.0004254511,0.0000000000
48.7500000000,3048.1737103119,9998.0097698231,-6277438562204192487878988888393020692503707483087375482269988814848.0000000000,-6277438562204192487878988888393020692503707483087375482269988814848.0000000000,-6277438562204192487878988888393020692503707483087375482269988814848.0000000000,-6277438562204192487878988888393020692503707483087375482269988814848.0000000000,0.0149493332,0.8569681474,-6277438562204192487878988888393020692503707483087375482269988814848.0000000000,-6277438562204192487878988888393020692503707483087375482269988814848.0000000000,85.0041815938,0.0000000000,-0.0045885794,278.8137156277,0.0000000000,-0.0150505403,0.0000000000,0.0150033139,0.0000000000,0.0000000000,0.8600625784,0.0000000000,0.0000000000,0.0000070632,0.0000000000,0.0000000000,0.0004048954,0.0000000000
49.5000000000,3048.1773071078,9998.0215673137,-6277438562204192487878988888393020692503707483087375482269988814848.0000000000,-6277438562204192487878988888393020692503707483087375482269988814848.0000000000,-6277438562204192487878988888393020692503707483087375482269988814848.0000000000,-6277438562204192487878988888393020692503707483087375482269988814848.0000000000,0.0149496608,0.8569869238,-6277438562204192487878988888393020692503707483087375482269988814848.0000000000,-6277438562204192487878988888393020692503707483087375482269988814848.0000000000,85.0039271967,0.0000000000,-0.0049978630,278.8128812050,0.0000000000,-0.0163929907,0.0000000000,0.0150084565,0.0000000000,0.0000000000,0.8603573763,0.0000000000,0.0000000000,0.0000066401,0.0000000000,0.0000000000,0.0003806433,0.0000000000
50.2500000000,3048.1811991405,9998.0343331807,-6277438562204192487878988888393020692503707483087375482269988814848.0000000000,-6277438562204192487878988888393020692503707483087375482269988814848.0000000000,-6277438562204192487878988888393020692503707483087375482269988814848.0000000000,-6277438562204192487878988888393020692503707483087375482269988814848.0000000000,0.0149500230,0.8570076907,-6277438562204192487878988888393020692503707483087375482269988814848.0000000000,-6277438562204192487878988888393020692503707483087375482269988814848.0000000000,85.0036449446,0.0000000000,-0.0053753153,278.8119554183,0.0000000000,-0.0176310342,0.0000000000,0.0150132593,0.0000000000,0.0000000000,0.8606327011,0.0000000000,0.0000000000,0.0000061583,0.0000000000,0.0000000000,0.0003530245,0.0000000000
51.0000000000,3048.1853613224,9998.0479851375,-6277438562204192487878988888393020692503707483087375482269988814848.0000000000,-6277438562204192487878988888393020692503707483087375482269988814848.0000000000,-6277438562204192487878988888393020692503707483087375482269988814848.0000000000,-6277438562204192487878988888393020692503707483087375482269988814848.0000000000,0.0149504156,0.8570301918,-6277438562204192487878988888393020692503707483087375482269988814848.0000000000,-6277438562204192487878988888393020692503707483087375482269988814848.0000000000,85.0033383423,0.0000000000,-0.0057177687,278.8109497629,0.0000000000,-0.0187542813,0.0000000000,0.0150176808,0.0000000000,0.0000000000,0.8608861601,0.0000000000,0.0000000000,0.0000056240,0.0000000000,0.0000000000,0.0003223960,0.0000000000
51.7500000000,3048.1897663499,9998.0624336276,-6277438562204192487878988888393020692503707483087375482269988814848.0000000000,-6277438562204192487878988888393020692503707483087375482269988814848.0000000000,-6277438562204192487878988888393020692503707483087375482269988814848.0000000000,-6277438562204192487878988888393020692503707483087375482269988814848.0000000000,0.0149508337,0.8570541583,-6277438562204192487878988888393020692503707483087375482269988814848.0000000000,-6277438562204192487878988888393020692503707483087375482269988814848.0000000000,85.0030110669,0.0000000000,-0.0060224840,278.8098762994,0.0000000000,-0.0197537474,0.0000000000,0.0150216839,0.0000000000,0.0000000000,0.8611156372,0.0000000000,0.0000000000,0.0000050438,0.0000000000,0.0000000000,0.0002891377,0.0000000000
52.5000000000,3048.1943850313,9998.0775829026,-6277438562204192487878988888393020692503707483087375482269988814848.0000000000,-6277438562204192487878988888393020692503707483087375482269988814848.0000000000,-6277438562204192487878988888393020692503707483087375482269988814848.0000000000,-6277438562204192487878988888393020692503707483087375482269988814848.0000000000,0.0149512725,0.8570793127,-6277438562204192487878988888393020692503707483087375482269988814848.0000000000,-6277438562204192487878988888393020692503707483087375482269988814848.0000000000,85.0026669263,0.0000000000,-0.0062871688,278.8087475184,0.0000000000,-0.0206219137,0.0000000000,0.0150252368,0.0000000000,0.0000000000,0.8613193085,0.0000000000,0.0000000000,0.0000044248,0.0000000000,0.0000000000,0.0002536481,0.0000000000
53.2500000000,3048.1991866279,9998.0933321394,-6277438562204192487878988888393020692503707483087375482269988814848.0000000000,-6277438562204192487878988888393020692503707483087375482269988814848.0000000000,-6277438562204192487878988888393020692503707483087375482269988814848.0000000000,-6277438562204192487878988888393020692503707483087375482269988814848.0000000000,0.0149517270,0.8571053711,-6277438562204192487878988888393020692503707483087375482269988814848.0000000000,-6277438562204192487878988888393020692503707483087375482269988814848.0000000000,85.0023098177,0.0000000000,-0.0065099916,278.8075762022,0.0000000000,-0.0213527723,0.0000000000,0.0150283131,0.0000000000,0.0000000000,0.8614956545,0.0000000000,0.0000000000,0.0000037739,0.0000000000,0.0000000000,0.0002163399,0.0000000000
54.0000000000,3048.2041392027,9998.1095765847,-6277438562204192487878988888393020692503707483087375482269988814848.0000000000,-6277438562204192487878988888393020692503707483087375482269988814848.0000000000,-6277438562204192487878988888393020692503707483087375482269988814848.0000000000,-6277438562204192487878988888393020692503707483087375482269988814848.0000000000,0.0149521924,0.8571320467,-6277438562204192487878988888393020692503707483087375482269988814848.0000000000,-6277438562204192487878988888393020692503707483087375482269988814848.0000000000,85.0019436853,0.0000000000,-0.0066895898,278.8063752879,0.0000000000,-0.0219418545,0.0000000000,0.0150308916,0.0000000000,0.0000000000,0.8616434690,0.0000000000,0.0000000000,0.0000030987,0.0000000000,0.0000000000,0.0001776351,0.0000000000
54.7500000000,3048.2092099741,9998.1262087152,-6277438562204192487878988888393020692503707483087375482269988814848.0000000000,-6277438562204192487878988888393020692503707483087375482269988814848.0000000000,-6277438562204192487878988888393020692503707483087375482269988814848.0000000000,-6277438562204192487878988888393020692503707483087375482269988814848.0000000000,0.0149526635,0.8571590526,-6277438562204192487878988888393020692503707483087375482269988814848.0000000000,-6277438562204192487878988888393020692503707483087375482269988814848.0000000000,85.0015724791,0.0000000000,-0.0068250738,278.8051577315,0.0000000000,-0.0223862422,0.0000000000,0.0150329570,0.0000000000,0.0000000000,0.8617618648,0.0000000000,0.0000000000,0.0000024067,0.0000000000,0.0000000000,0.0001379611,0.0000000000
55.5000000000,3048.2143656706,9998.1431193996,-6277438562204192487878988888393020692503707483087375482269988814848.0000000000,-6277438562204192487878988888393020692503707483087375482269988814848.0000000000,-6277438562204192487878988888393020692503707483087375482269988814848.0000000000,-6277438562204192487878988888393020692503707483087375482269988814848.0000000000,0.0149531354,0.8571861050,-6277438562204192487878988888393020692503707483087375482269988814848.0000000000,-6277438562204192487878988888393020692503707483087375482269988814848.0000000000,85.0012001141,0.0000000000,-0.0069160257,278.8039363742,0.0000000000,-0.0226845644,0.0000000000,0.0150344992,0.0000000000,0.0000000000,0.8618502753,0.0000000000,0.0000000000,0.0000017051,0.0000000000,0.0000000000,0.0000977455,0.0000000000
